time,.header.seq,.header.stamp.secs,.header.stamp.nsecs,.header.frame_id,.x_com,.xd_com,.dtheta,.x,.y,.ux,.uy,.heading,.flag
2023/12/06/18:40:42.007167,0,0,0,,0.0,0.0,0.0,0.0,0.0,0.0,0.0,0.0,0
2023/12/06/18:40:42.406074,1,0,0,,0.048616964498923866,0.27348561155214307,0.057911312836832624,0.037753402713924994,2.999671396505905,0.0,0.0,0.0,0
2023/12/06/18:40:42.805034,2,0,0,,0.051923251975953884,0.29794576560932473,0.08297309398251088,0.04145395055573792,3.0345979242526924,0.0,0.0,0.0,0
2023/12/06/18:40:43.203010,3,0,0,,0.05350289178842351,0.3026977418101091,0.11372086309055442,0.04201366190579325,3.037246846000774,0.0,0.0,0.0,0
2023/12/06/18:40:43.601388,4,0,0,,0.17933303506260725,0.7306939076786325,0.19864527921702008,0.21723957084637677,3.0523359547448137,0.0,0.0,0.0,0
2023/12/06/18:40:43.999612,5,0,0,,0.1754012791071451,0.7254681230676636,0.21708344030422144,0.31043267502792604,3.0535574245372565,0.0,0.0,0.0,0
2023/12/06/18:40:44.396725,6,0,0,,0.1745327102946648,0.7256255486501789,0.2569111728453292,0.3731140934293016,3.0463529663558435,0.0,0.0,0.0,0
2023/12/06/18:40:44.794477,7,0,0,,0.2,0.6714489302674,0.333073952005392,0.5106299800165724,3.061930061380304,0.0,0.0,0.0,0
2023/12/06/18:40:45.192770,8,0,0,,0.2,0.6457963959476716,0.3458686715676101,0.6699787134417308,3.0808035783100634,0.0,0.0,0.0,0
2023/12/06/18:40:45.590664,9,0,0,,0.17358311141037586,0.6001024458464861,0.3504340045699492,0.7424047951395836,3.1081011126396376,0.0,0.0,0.0,0
2023/12/06/18:40:45.988889,10,0,0,,0.2,0.6271856788147565,0.3731883454935752,0.9023037851568138,3.18420755786476,0.0,0.0,0.0,0
2023/12/06/18:40:46.387612,11,0,0,,0.17844998010346882,0.6055236285490788,0.35064273389800626,0.9685340558826463,3.22736168032826,0.0,0.0,0.0,0
2023/12/06/18:40:46.785650,12,0,0,,0.2,0.6380073114214259,0.37657472302204625,1.104658387226132,3.335605239643844,0.0,0.0,0.0,0
2023/12/06/18:40:47.184323,13,0,0,,0.19990138265793408,0.648028038788432,0.3457228202895785,1.2511956771970352,3.4007104582925662,0.0,0.0,0.0,0
2023/12/06/18:40:47.582445,14,0,0,,0.17392884846136886,0.5914221362053766,0.3517394890399891,1.3431654921209337,3.4252886175210473,0.0,0.0,0.0,0
2023/12/06/18:40:47.980584,15,0,0,,0.1767263837257178,0.6030414242003354,0.367196585281759,1.453948688113034,3.4681069927268076,0.0,0.0,0.0,0
2023/12/06/18:40:48.379411,16,0,0,,0.18711197275872324,0.6219239494774995,0.356207817842678,1.5838216951128647,3.5158863585112874,0.0,0.0,0.0,0
2023/12/06/18:40:48.778866,17,0,0,,0.17279168447847876,0.5893144287438679,0.35756549314523123,1.644050917741393,3.5566963985856628,0.0,0.0,0.0,0
2023/12/06/18:40:49.176767,18,0,0,,0.2,0.6447281780733922,0.36325216698730084,1.7910771977220616,3.666513714724773,0.0,0.0,0.0,0
2023/12/06/18:40:49.574641,19,0,0,,0.1898220280100077,0.6212767032685382,0.3359125269178648,1.8997262131494528,3.7286930977739012,0.0,0.0,0.0,0
2023/12/06/18:40:49.972797,20,0,0,,0.1779689055203257,0.5914683178900612,0.32627735681332176,2.0206351712165254,3.794056097689167,0.0,0.0,0.0,0
2023/12/06/18:40:50.371271,21,0,0,,0.19276087061751662,0.623907731807006,0.3286541671610766,2.1755832484151947,3.859252469632795,0.0,0.0,0.0,0
2023/12/06/18:40:50.770253,22,0,0,,0.2,0.6369616089182231,0.3325023949828895,2.3479881960043696,3.9283578906530714,0.0,0.0,0.0,0
2023/12/06/18:40:51.167811,23,0,0,,0.18923017230335673,0.6096094825688366,0.31892793443859296,2.4969355632694166,3.9879434985908038,0.0,0.0,0.0,0
2023/12/06/18:40:51.565307,24,0,0,,0.1779487305799444,0.5829042572800289,0.3254307504441562,2.621055456334338,4.023368963606026,0.0,0.0,0.0,0
2023/12/06/18:40:51.964174,25,0,0,,0.18423838678033577,0.5998996572251796,0.3438649557784542,2.7565641726408185,4.071177162137955,0.0,0.0,0.0,0
2023/12/06/18:40:52.362317,26,0,0,,0.18966286921698428,0.6074954315956103,0.34098745432128635,2.9048532955176602,4.117001195034226,0.0,0.0,0.0,0
2023/12/06/18:40:52.760461,27,0,0,,0.19669579571414428,0.621901255569666,0.3455812894183209,3.0725100157051015,4.165755982021543,0.0,0.0,0.0,0
2023/12/06/18:40:53.158771,28,0,0,,0.2,0.6925902127640876,0.3581889555934849,3.2112312776599676,4.193196603065051,0.0,0.0,0.0,0
2023/12/06/18:40:53.557407,29,0,0,,0.19853715092540106,0.7029059286986813,0.35817789836077085,3.3316594503355157,4.22991217663471,0.0,0.0,0.0,0
2023/12/06/18:40:53.957160,30,0,0,,0.2,0.6607455586868588,0.3711204498198894,3.471652859831656,4.292811052513437,0.0,0.0,0.0,0
2023/12/06/18:40:54.355147,31,0,0,,0.2,0.6444618846694928,0.3639977445058517,3.6418200991355727,4.348215524553128,0.0,0.0,0.0,0
2023/12/06/18:40:54.753292,32,0,0,,0.2,0.6796351881474787,0.3760121469980537,3.7956869941867057,4.39606297345669,0.0,0.0,0.0,0
2023/12/06/18:40:55.151109,33,0,0,,0.19627651479863198,0.6929982287224087,0.38913266355822235,3.91064772524447,4.4471481357465406,0.0,0.0,0.0,0
2023/12/06/18:40:55.549333,34,0,0,,0.19119914443777622,0.6889450751732309,0.39464659919502,3.982154855084083,4.460904229625156,0.0,0.0,0.0,0
2023/12/06/18:40:55.947062,35,0,0,,0.2,0.6466886646290528,0.36663503709598033,4.136356162916891,4.461292313318376,0.0,0.0,0.0,0
2023/12/06/18:40:56.346623,36,0,0,,0.2,0.6456836986962872,0.3814151577765946,4.2933082342718585,4.5105770025249985,0.0,0.0,0.0,0
2023/12/06/18:40:56.744056,37,0,0,,0.19540831066315115,0.6821898964619625,0.3767407007771565,4.416608113857867,4.571312599875895,0.0,0.0,0.0,0
2023/12/06/18:40:57.141954,38,0,0,,0.2,0.6815795786786359,0.36627603778375656,4.549152444485654,4.631229595753468,0.0,0.0,0.0,0
2023/12/06/18:40:57.539206,39,0,0,,0.2,0.6708684346490663,0.36375556140849274,4.67813041369932,4.693725751924101,0.0,0.0,0.0,0
2023/12/06/18:40:57.937363,40,0,0,,0.2,0.6665215462027578,0.36096069693650695,4.818333629447363,4.754809016259213,0.0,0.0,0.0,0
2023/12/06/18:40:58.334628,41,0,0,,0.19673318505888254,0.6744903590598871,0.3629532817044049,4.946765671484568,4.814224958469104,0.0,0.0,0.0,0
2023/12/06/18:40:58.731773,42,0,0,,0.19894728408198512,0.6746988388067787,0.3667689718727765,5.086484792998731,4.8696937796394275,0.0,0.0,0.0,0
2023/12/06/18:40:59.130913,43,0,0,,0.2,0.6615651682025718,0.36658397059782344,5.243556919782772,4.922432434667601,0.0,0.0,0.0,0
2023/12/06/18:40:59.529465,44,0,0,,0.19962749346906225,0.6687344566330559,0.3690116221652589,5.395424629790613,4.975085719682248,0.0,0.0,0.0,0
2023/12/06/18:40:59.928195,45,0,0,,0.19376376839281761,0.6621390881954997,0.36721585802318646,5.518465446525676,5.033839391892944,0.0,0.0,0.0,0
2023/12/06/18:41:00.327442,46,0,0,,0.19827451911911456,0.6638077059249724,0.36179423674155703,5.6613843251279095,5.098907571026283,0.0,0.0,0.0,0
2023/12/06/18:41:00.726021,47,0,0,,0.19667269210047392,0.6594127151976805,0.35670033684427166,5.7931179312464325,5.161482337886424,0.0,0.0,0.0,0
2023/12/06/18:41:01.123943,48,0,0,,0.1979376962440135,0.6578453500193887,0.35919920318913684,5.940863662453351,5.225782670858298,0.0,0.0,0.0,0
2023/12/06/18:41:01.521879,49,0,0,,0.18747705540173135,0.6472433553920095,0.3581339804009754,6.043265191674174,5.2798796741683685,0.0,0.0,0.0,0
2023/12/06/18:41:01.920012,50,0,0,,0.18522730572951662,0.6447721140747865,0.3547473352924793,6.15076177316833,5.318396291030804,0.0,0.0,0.0,0
2023/12/06/18:41:02.318698,51,0,0,,0.18933149255864673,0.6462635370868764,0.35627954763905273,6.267161640041782,5.365139831141906,0.0,0.0,0.0,0
2023/12/06/18:41:02.715869,52,0,0,,0.19818154120397122,0.6500588672226175,0.35156315811970557,6.413252000718225,5.436262915886272,0.0,0.0,0.0,0
2023/12/06/18:41:03.113602,53,0,0,,0.18222930471775403,0.6347970079781181,0.3492979554066372,6.468276487569079,5.484141171946989,0.0,0.0,0.0,0
2023/12/06/18:41:03.511799,54,0,0,,0.2,0.6465427986548916,0.3534974604343325,6.5900438405192565,5.578967609000627,0.0,0.0,0.0,0
2023/12/06/18:41:03.909877,55,0,0,,0.19842166371072295,0.6423356482574961,0.32081528358408956,6.719561067061609,5.64665011875768,0.0,0.0,0.0,0
2023/12/06/18:41:04.308188,56,0,0,,0.179489265890611,0.626092307529434,0.3256581839210826,6.786198429569458,5.66376845955728,0.0,0.0,0.0,0
2023/12/06/18:41:04.706326,57,0,0,,0.19813129341943722,0.6408251709838633,0.33203275068941807,6.952806752345697,5.6814633948789774,0.0,0.0,0.0,0
2023/12/06/18:41:05.104392,58,0,0,,0.19885317500108685,0.636245638297512,0.3409870397564048,7.114195234238648,5.733800158565816,0.0,0.0,0.0,0
2023/12/06/18:41:05.502384,59,0,0,,0.1794372767514639,0.6186803343400737,0.3375427786272723,7.19724062714887,5.788808585900414,0.0,0.0,0.0,0
2023/12/06/18:41:05.899878,60,0,0,,0.1851072725086938,0.6233582429187711,0.3298647154004888,7.3211587236422035,5.844130711034275,0.0,0.0,0.0,0
2023/12/06/18:41:06.298498,61,0,0,,0.18985150243250726,0.6243423340026801,0.3328422900358028,7.440918699701092,5.890264083806198,0.0,0.0,0.0,0
2023/12/06/18:41:06.696197,62,0,0,,0.1848495606116427,0.6175313776053593,0.33955264831288107,7.561704891200427,5.927604187137547,0.0,0.0,0.0,0
2023/12/06/18:41:07.094758,63,0,0,,0.17966411337301635,0.6119711815781251,0.32863508391638974,7.667893609268025,5.959965581621696,0.0,0.0,0.0,0
2023/12/06/18:41:07.492837,64,0,0,,0.18557086379152557,0.6151939740072019,0.33780047797825385,7.794348009628505,5.999686886628648,0.0,0.0,0.0,0
2023/12/06/18:41:07.891468,65,0,0,,0.1942653690312351,0.6187129478128444,0.3522160251709976,7.956203200555736,6.036713885480081,0.0,0.0,0.0,0
2023/12/06/18:41:08.290703,66,0,0,,0.1777144780379614,0.6026283849884074,0.34753925412991726,8.050655885326924,6.037001640755799,0.0,0.0,0.0,0
2023/12/06/18:41:08.687943,67,0,0,,0.19233782394191348,0.5962913520977303,0.32603773932639557,8.221412245205576,6.038123877952601,0.0,0.0,0.0,0
2023/12/06/18:41:09.086156,68,0,0,,0.19287775493676146,0.5925860840674023,0.3653581241603706,8.38697278436736,6.088155084329115,0.0,0.0,0.0,0
2023/12/06/18:41:09.484339,69,0,0,,0.1682296991915557,0.5383396805790552,0.3402226692718309,8.498292459550148,6.13106668247411,0.0,0.0,0.0,0
2023/12/06/18:41:09.881469,70,0,0,,0.17866197150654278,0.5659866101810693,0.319343845930686,8.648865316351765,6.193530004757126,0.0,0.0,0.0,0
2023/12/06/18:41:10.278765,71,0,0,,0.17402939979318136,0.5558067424593272,0.32796449098070385,8.757696835501157,6.255211123210753,0.0,0.0,0.0,0
2023/12/06/18:41:10.677095,72,0,0,,0.19366991088950788,0.5336470020260679,0.31268583198546396,8.941044135436387,6.317595432058522,0.0,0.0,0.0,0
2023/12/06/18:41:11.075493,73,0,0,,0.18318748407484517,0.5774388229955271,0.28392983981355613,9.025432296695982,6.375385662297167,0.0,0.0,0.0,0
2023/12/06/18:41:11.472903,74,0,0,,0.1817934359887162,0.5744042779616763,0.3008770192331676,9.161588821415805,6.440448257165115,0.0,0.0,0.0,0
2023/12/06/18:41:11.872356,75,0,0,,0.18189790558532237,0.5727149314123915,0.28817256019088805,9.300440730655598,6.492037564587603,0.0,0.0,0.0,0
2023/12/06/18:41:12.270943,76,0,0,,0.18070639939393354,0.5697603280432757,0.27887929124953253,9.450731158444468,6.546856310271106,0.0,0.0,0.0,0
2023/12/06/18:41:12.669809,77,0,0,,0.17923456222318268,0.5671430377812122,0.27657061048388454,9.597081926854008,6.599864092251818,0.0,0.0,0.0,0
2023/12/06/18:41:13.067635,78,0,0,,0.17030829599562683,0.5672986287617585,0.27834280607991135,9.699904751166992,6.611036795776398,0.0,0.0,0.0,0
2023/12/06/18:41:13.466055,79,0,0,,0.1791211343508189,0.5737512225810011,0.2908402620226257,9.834576249823954,6.64068476401586,0.0,0.0,0.0,0
2023/12/06/18:41:13.864460,80,0,0,,0.1776224614824028,0.569446871575073,0.3025125760853482,9.95678879161828,6.668638687950864,0.0,0.0,0.0,0
2023/12/06/18:41:14.263315,81,0,0,,0.17907086798055524,0.5683432386404605,0.30920403706996646,10.098930008302544,6.700324954388865,0.0,0.0,0.0,0
2023/12/06/18:41:14.661457,82,0,0,,0.18373758062728435,0.5692772145485732,0.3190718864135018,10.251261023822039,6.74519767424452,0.0,0.0,0.0,0
2023/12/06/18:41:15.060714,83,0,0,,0.17274312134386435,0.5579212109573723,0.329434237678279,10.354721684070327,6.7923127984497444,0.0,0.0,0.0,0
2023/12/06/18:41:15.458517,84,0,0,,0.18479887612681678,0.5662535129534324,0.33767775668616684,10.504681909947161,6.861200085850521,0.0,0.0,0.0,0
2023/12/06/18:41:15.856380,85,0,0,,0.18263757323153734,0.5602589495073822,0.3264961336054424,10.647263758487533,6.917872108069607,0.0,0.0,0.0,0
2023/12/06/18:41:16.253919,86,0,0,,0.17905663214179243,0.5550493593848232,0.33731704575521093,10.789025987674263,6.969345955657731,0.0,0.0,0.0,0
2023/12/06/18:41:16.652615,87,0,0,,0.17367166691626706,0.5488833409901392,0.344655185021895,10.914971756587159,7.0183347996856185,0.0,0.0,0.0,0
2023/12/06/18:41:17.050491,88,0,0,,0.17843656670227856,0.5508251170847521,0.33447727632508867,11.053776720383713,7.061499855488607,0.0,0.0,0.0,0
2023/12/06/18:41:17.448671,89,0,0,,0.1777931445795731,0.547207825093369,0.3406948645543221,11.19402404560968,7.107551823841868,0.0,0.0,0.0,0
2023/12/06/18:41:17.846847,90,0,0,,0.17802311049377237,0.5489854716253381,0.3502657143220913,11.331345591399343,7.146109233272062,0.0,0.0,0.0,0
2023/12/06/18:41:18.246610,91,0,0,,0.16252745720864012,0.5082731314460153,0.3305947688925072,11.41844008635126,7.184587476802681,0.0,0.0,0.0,0
2023/12/06/18:41:18.644382,92,0,0,,0.1487872910745958,0.46555580927583873,0.33333689214690115,11.49577292566045,7.213853853202357,0.0,0.0,0.0,0
2023/12/06/18:41:19.042951,93,0,0,,0.15611149992604786,0.471310621680634,0.3279424027326925,11.60870231916489,7.246360597130812,0.0,0.0,0.0,0
2023/12/06/18:41:19.442076,94,0,0,,0.16616201264651123,0.4744791632484965,0.33297327006323,11.743879834918928,7.2957840460241545,0.0,0.0,0.0,0
2023/12/06/18:41:19.839877,95,0,0,,0.159184899251314,0.4209856188560203,0.30595375708715206,11.894321455162634,7.3478143357418695,0.0,0.0,0.0,0
2023/12/06/18:41:20.237695,96,0,0,,0.12387124916073904,0.31100064806854194,0.3193046597375261,11.826986949107585,7.3262468152876385,0.0,0.0,0.0,0
2023/12/06/18:41:20.635276,97,0,0,,0.090350368895367,0.19724839927496468,0.2847405334609705,11.912770468843778,7.3546083565991855,0.0,0.0,0.0,0
2023/12/06/18:41:21.034417,98,0,0,,0.04213798343482457,0.03979091998368972,0.2427316328791337,11.953211786747886,7.366445151476044,0.0,0.0,0.0,0
2023/12/06/18:41:21.431630,99,0,0,,0.12585626990979107,0.2859712840648708,0.25475693017600587,12.079979119018313,7.432451110168216,0.0,0.0,0.0,0
2023/12/06/18:41:21.830765,100,0,0,,0.10592767269867519,0.24061982357945771,0.27629944105113924,12.10892997770953,7.435511483091362,0.0,0.0,0.0,0
2023/12/06/18:41:22.228716,101,0,0,,0.06457306054675534,0.1226238123701672,0.20985004999482776,12.171053880604385,7.453126841091854,0.0,0.0,0.0,0
2023/12/06/18:41:22.626295,102,0,0,,0.12886275119144658,0.42854616543765234,0.33484246334106926,12.254235672009987,7.428310605689066,0.0,0.0,0.0,0
2023/12/06/18:41:23.023656,103,0,0,,0.15099052316330075,0.4208226915342254,0.2742751947327773,12.396840497254592,7.477929169776362,0.0,0.0,0.0,0
2023/12/06/18:41:23.422275,104,0,0,,0.079696547858048,0.2542618110333229,0.2907015691660837,12.277502973371943,7.380572261764974,0.0,0.0,0.0,0
